address,lng,lat
臺北市大安區仁愛路四段112巷11號,25.036552,121.549711
臺北市大安區忠孝東路四段７７號,25.041865,121.54733
臺北市大安區仁愛路四段71巷1號,25.038495,121.547028
臺北市大安區光復南路116巷1號,25.043464,121.556064
臺北市大安區基隆路 3段155巷57號 ,25.014496,121.543916
臺北市大安區仁愛路四段266巷6號，280號,25.037178,121.552801
