address,lng,lat,normalBed,icuBed,phone,placeName
臺北市大安區仁愛路四段112巷11號,25.036552,121.549711,134,6,(02)27081166,中山醫療社團法人中山醫院
臺北市大安區忠孝東路四段７７號,25.041865,121.54733,109,6,(02)27510221,中心診所醫療財團法人中心綜合醫院
臺北市大安區仁愛路四段71巷1號,25.038495,121.547028,99,0,(02)27713161,宏恩醫療財團法人宏恩綜合醫院
臺北市大安區光復南路116巷1號,25.043464,121.556064,23,0,(02)27717172,秀傳醫院
臺北市大安區基隆路 3段155巷57號 ,25.014496,121.543916,432,28,(02)23220322,國立臺灣大學醫學院附設醫院癌醫中心分院
臺北市大安區仁愛路四段266巷6號，280號,25.037178,121.552801,556,56,(02)27082121,國泰醫療財團法人國泰綜合醫院
